{
    "PARUL INSITUTE OF AYURVEDA AND RESEARCH": {
        "name": "PARUL INSITUTE OF AYURVEDA AND RESEARCH",
        "lat": 22.2934543,
        "lng": 73.3582693
    },
    "SHAKUNTALA BHAWAN": {
        "name": "SHAKUNTALA BHAWAN",
        "lat": 22.294687,
        "lng": 73.359005
    },
    "ATAL - A": {
        "name": "ATAL - A",
        "lat": 22.294860,
        "lng": 73.359306
    },
    "ATAL - B": {
        "name": "ATAL - B",
        "lat": 22.294833,
        "lng": 73.359817
    },
    "AZAD - A": {
        "name": "AZAD - A",
        "lat": 22.294996,
        "lng": 73.362219
    },
    "AZAD - B": {
        "name": "AZAD - B",
        "lat": 22.294475,
        "lng": 73.362201
    },
    "PARUL INSTITUTE OF HOMOEOPATHY AND RESEARCH": {
        "name": "PARUL INSTITUTE OF HOMOEOPATHY AND RESEARCH",
        "lat": 22.2930771,
        "lng": 73.3588218
    },
    "BUS PARKING": {
        "name": "BUS PARKING",
        "lat": 22.294064,
        "lng": 73.362699
    },
    "SUBHASH CHANDRA BOSE BHAVAN": {
        "name": "SUBHASH CHANDRA BOSE BHAVAN",
        "lat": 22.292985,
        "lng": 73.362021
    },
    "L-BLOCK": {
        "name": "L-BLOCK",
        "lat": 22.292348,
        "lng": 73.362926
    },
    "N-BLOCK": {
        "name": "N-BLOCK",
        "lat": 22.291632,
        "lng": 73.363103
    },
    "PARUL INSTITUTE OF ARCHITECTURE AND RESEARCH NEAR N-BLOCK": {
        "name": "PARUL INSTITUTE OF ARCHITECTURE AND RESEARCH NEAR N-BLOCK",
        "lat": 22.289775,
        "lng": 73.3618631
    },
    "KALPAN BHAWAN - B": {
        "name": "KALPAN BHAWAN - B",
        "lat": 22.289775,
        "lng": 73.3618631
    },
    "P.G.D.M HOSTEL": {
        "name": "P.G.D.M HOSTEL",
        "lat": 22.289502,
        "lng": 73.3617759
    },
    "PARUL INSTITUE OF MANAGEMENT AND RESEARCH NEAR KALPAN BHAWAN-B": {
        "name": "PARUL INSTITUE OF MANAGEMENT AND RESEARCH NEAR KALPAN BHAWAN-B",
        "lat": 22.2891625,
        "lng": 73.3620821
    },
    "THE BELGIAN WAFFLE": {
        "name": "THE BELGIAN WAFFLE",
        "lat": 22.2887066,
        "lng": 73.3622111
    },
    "PARUL INSTITUE OF BUSINESS ADMINISTRATION": {
        "name": "PARUL INSTITUE OF BUSINESS ADMINISTRATION",
        "lat": 22.2886791,
        "lng": 73.362603
    },
    "PARUL INSTITUTE OF COMPUTER APPLICATION": {
        "name": "PARUL INSTITUTE OF COMPUTER APPLICATION",
        "lat": 22.2885567,
        "lng": 73.3628444
    },
    "TINKERING HUB , PARUL UNIVERSITY": {
        "name": "TINKERING HUB , PARUL UNIVERSITY",
        "lat": 22.2885567,
        "lng": 73.3628444
    },
    "TAGORE BHAWAN - A": {
        "name": "TAGORE BHAWAN - A",
        "lat": 22.292040,
        "lng": 73.364619
    },
    "TAGORE BHAWAN - B": {
        "name": "TAGORE BHAWAN - B",
        "lat": 22.292275,
        "lng": 73.363475
    },
    "TAGORE BHAWAN - C": {
        "name": "TAGORE BHAWAN - C",
        "lat": 22.294657,
        "lng": 73.364913
    },
    "TAGORE BHAWAN - D": {
        "name": "TAGORE BHAWAN - D",
        "lat": 22.295230,
        "lng": 73.365002
    },
    "RAMDEV HOSTEL PARUL": {
        "name": "RAMDEV HOSTEL PARUL",
        "lat": 22.292705,
        "lng": 73.365171
    },
    "NON TEACHING STAFF QUARTRS BLOCK": {
        "name": "NON TEACHING STAFF QUARTRS BLOCK",
        "lat": 22.292104,
        "lng": 73.365357
    },
    "KALAM BHAVAN - A&B": {
        "name": "KALAM BHAVAN - A&B",
        "lat": 22.2916792,
        "lng": 73.3654188
    },
    "KALAM BHAVAN - C": {
        "name": "KALAM BHAVAN - C",
        "lat": 22.2916578,
        "lng": 73.3657255
    },
    "KALAM BHAVAN - D": {
        "name": "KALAM BHAVAN - D",
        "lat": 22.2917673,
        "lng": 73.3660881
    },
    "SCHOOL OF PHARAMACY": {
        "name": "SCHOOL OF PHARAMACY",
        "lat": 22.2915778,
        "lng": 73.3660574
    },
    "PARUL INSTITUE OF MEDICAL SCIENCES AND RESEARCH[SOUTH ADMISSION CELL]": {
        "name": "PARUL INSTITUE OF MEDICAL SCIENCES AND RESEARCH[SOUTH ADMISSION CELL]",
        "lat": 22.2925844,
        "lng": 73.3662395
    },
    "PIMSR LIBRARY": {
        "name": "PIMSR LIBRARY",
        "lat": 22.2925844,
        "lng": 73.3662395
    },
    "PARUL INSTITUTE OF MEDICAL SCIENCES AND RESEARCH [OPP TERSA - A]": {
        "name": "PARUL INSTITUTE OF MEDICAL SCIENCES AND RESEARCH [OPP TERSA - A]",
        "lat": 22.2925844,
        "lng": 73.3662395
    },
    "DEPARTMENT OF PARAMEDICAL AND HEALTH SCIENCE(DPHS)": {
        "name": "DEPARTMENT OF PARAMEDICAL AND HEALTH SCIENCE(DPHS)",
        "lat": 22.2925844,
        "lng": 73.3662395
    },
    "INTERNATIONAL STUDENTS HOSTELS , PARUL UNIVERSITY": {
        "name": "INTERNATIONAL STUDENTS HOSTELS , PARUL UNIVERSITY",
        "lat": 22.2918393,
        "lng": 73.3657555
    },
    "SHASTRI BHAWAN - A": {
        "name": "SHASTRI BHAWAN - A",
        "lat": 22.2909936,
        "lng": 73.3649369
    },
    "SHASTRI BHAWAN - B": {
        "name": "SHASTRI BHAWAN - B",
        "lat": 22.290917,
        "lng": 73.365082
    },
    "SHASTRI BHAWAN - C": {
        "name": "SHASTRI BHAWAN - C",
        "lat": 22.2909936,
        "lng": 73.3649369
    },
    "DHOOM GROUND": {
        "name": "DHOOM GROUND",
        "lat": 22.291329,
        "lng": 73.3641642
    },
    "SHREE SAI TEMPLE": {
        "name": "SHREE SAI TEMPLE",
        "lat": 22.2906809,
        "lng": 73.3649101
    },
    "JAWAHARLAL NEHRU HOMOEOPATHIC MEDICAL COLLEGE": {
        "name": "JAWAHARLAL NEHRU HOMOEOPATHIC MEDICAL COLLEGE",
        "lat": 22.29045,
        "lng": 73.3653776
    },
    "PARUL INSTITUTE OF PHYSIOTHERAPY": {
        "name": "PARUL INSTITUTE OF PHYSIOTHERAPY",
        "lat": 22.29045,
        "lng": 73.3653776
    },
    "PARUL POLYTECHNIC INSTITUE": {
        "name": "PARUL POLYTECHNIC INSTITUE",
        "lat": 22.2907423,
        "lng": 73.3658274
    },
    "PARUL INSTITUTE OF NURSING": {
        "name": "PARUL INSTITUTE OF NURSING",
        "lat": 22.2901199,
        "lng": 73.3658721
    },
    "TERESA - A": {
        "name": "TERESA - A",
        "lat": 22.2929192,
        "lng": 73.3674081
    },
    "TERESA - B": {
        "name": "TERESA - B",
        "lat": 22.292780,
        "lng": 73.368305
    },
    "TERESA - C": {
        "name": "TERESA - C",
        "lat": 22.293130,
        "lng": 73.368161
    },
    "TERESA - D": {
        "name": "TERESA - D",
        "lat": 22.2944962,
        "lng": 73.3677386
    },
    "BESIDE TERESA - C GROUND": {
        "name": "BESIDE TERESA - C GROUND",
        "lat": 22.293513,
        "lng": 73.368318
    },
    "MEDICAL PARKING": {
        "name": "MEDICAL PARKING",
        "lat": 22.2932647,
        "lng": 73.3675602
    },
    "PARUL UNIVERSITY CRICKET GROUND": {
        "name": "PARUL UNIVERSITY CRICKET GROUND",
        "lat": 22.2938346,
        "lng": 73.3679402
    },
    "FOOT BALL GROUND [NEAR CRICKET GROUND]": {
        "name": "FOOT BALL GROUND [NEAR CRICKET GROUND]",
        "lat": 22.2953593,
        "lng": 73.366623
    },
    "PARUL UNIVERSITY BASKET BALL COURT": {
        "name": "PARUL UNIVERSITY BASKET BALL COURT",
        "lat": 22.2904401,
        "lng": 73.36478
    },
    "PARUL UNIVERSITY VOLLEY BALL COURT": {
        "name": "PARUL UNIVERSITY VOLLEY BALL COURT",
        "lat": 22.2904513,
        "lng": 73.3643844
    },
    "BOOK STORE NEAR CANTEEEN": {
        "name": "BOOK STORE NEAR CANTEEEN",
        "lat": 22.2899946,
        "lng": 73.3648243
    },
    "CANTEEN": {
        "name": "CANTEEN",
        "lat": 22.2900679,
        "lng": 73.364603
    },
    "MR.PUFF": {
        "name": "MR.PUFF",
        "lat": 22.2900679,
        "lng": 73.364603
    },
    "PU GYM": {
        "name": "PU GYM",
        "lat": 22.2898396,
        "lng": 73.3649957
    },
    "BOTANICAL GARDEN": {
        "name": "BOTANICAL GARDEN",
        "lat": 22.2900308,
        "lng": 73.365204
    },
    "TEA - POST": {
        "name": "TEA - POST",
        "lat": 22.2899946,
        "lng": 73.3648243
    },
    "STUDENT BOOK STALL IN OLD FOOD COURT": {
        "name": "STUDENT BOOK STALL IN OLD FOOD COURT",
        "lat": 22.2898246,
        "lng": 73.3638681
    },
    "PU WORKSHOP[D-MCH BLOCK]": {
        "name": "PU WORKSHOP[D-MCH BLOCK]",
        "lat": 22.2897167,
        "lng": 73.364367
    },
    "D-BLOCK": {
        "name": "D-BLOCK",
        "lat": 22.2898246,
        "lng": 73.3638681
    },
    "ORTHOPEDIC SEMIAR ROOM , 1ST FLOOR NEW SURGICAL BLOCK": {
        "name": "ORTHOPEDIC SEMIAR ROOM , 1ST FLOOR NEW SURGICAL BLOCK",
        "lat": 22.2893706,
        "lng": 73.3635637
    },
    "PROJECTIONS TECHFEST": {
        "name": "PROJECTIONS TECHFEST",
        "lat": 22.2886582,
        "lng": 73.363734
    },
    "PU CIRCLE": {
        "name": "PU CIRCLE",
        "lat": 22.2887997,
        "lng": 73.3639405
    },
    "PARUL UNIVERSITY": {
        "name": "PARUL UNIVERSITY",
        "lat": 22.2885564,
        "lng": 73.3636749
    },
    "PARUL ADMISSION CELL": {
        "name": "PARUL ADMISSION CELL",
        "lat": 22.2886582,
        "lng": 73.363734
    },
    "PARUL UNIVERSITY CAR PARKING NEAR MAIN GATE": {
        "name": "PARUL UNIVERSITY CAR PARKING NEAR MAIN GATE",
        "lat": 22.2880228,
        "lng": 73.3630661
    },
    "PARUL UNIVERSITY MAIN GATE": {
        "name": "PARUL UNIVERSITY MAIN GATE",
        "lat": 22.2874694,
        "lng": 73.3646298
    },
    "MAIN GATE RIGHT SIDE ATM BANK": {
        "name": "MAIN GATE RIGHT SIDE ATM BANK",
        "lat": 22.287590,
        "lng": 73.364370
    },
    "UTKARSH SMALL FINANCE BANK[GATE - 3]": {
        "name": "UTKARSH SMALL FINANCE BANK[GATE - 3]",
        "lat": 22.2882678,
        "lng": 73.3627212
    },
    "PARUL UNIVERSITY STUDENT PARKING": {
        "name": "PARUL UNIVERSITY STUDENT PARKING",
        "lat": 22.2881744,
        "lng": 73.363454
    },
    "24 HRS EMERGENCY , PSH": {
        "name": "24 HRS EMERGENCY , PSH",
        "lat": 22.2882656,
        "lng": 73.3654859
    },
    "PARUL INSTITUE OF DESIGN": {
        "name": "PARUL INSTITUE OF DESIGN",
        "lat": 22.295074,
        "lng": 73.364436
    },
    "ANANDA BLISS": {
        "name": "ANANDA BLISS",
        "lat": 22.2886998,
        "lng": 73.3647658
    },
    "PARUL INSTITUE OF PHARAMACY": {
        "name": "PARUL INSTITUE OF PHARAMACY",
        "lat": 22.2881923,
        "lng": 73.3650269
    },
    "KATHI JUNCTION": {
        "name": "KATHI JUNCTION",
        "lat": 22.292490,
        "lng": 73.364584
    },
    "CAPITOL CRUST": {
        "name": "CAPITOL CRUST",
        "lat": 22.293806,
        "lng": 73.365790
    },
    "WAGH BAKRI TEA WORLD": {
        "name": "WAGH BAKRI TEA WORLD",
        "lat": 22.291219,
        "lng": 73.364966
    },
    "AMUL STORE": {
        "name": "AMUL STORE",
        "lat": 22.291229,
        "lng": 73.365015
    },
    "MADDY GRILL": {
        "name": "MADDY GRILL",
        "lat": 22.2910916,
        "lng": 73.3647089
    },
    "SIZE ZERO": {
        "name": "SIZE ZERO",
        "lat": 22.2911574,
        "lng": 73.3647921
    },
    "MR.BEANS AND FARKI": {
        "name": "MR.BEANS AND FARKI",
        "lat": 22.2899946,
        "lng": 73.3648243
    },
    "WFC COURT": {
        "name": "WFC COURT",
        "lat": 22.2891119,
        "lng": 73.3612145
    },
    "WELCOME OMLET CENTER": {
        "name": "WELCOME OMLET CENTER",
        "lat": 22.289075,
        "lng": 73.3648997
    },
    "MR.IDLI": {
        "name": "MR.IDLI",
        "lat": 22.289075,
        "lng": 73.3648997
    },
    "WORK AND CHOPS": {
        "name": "WORK AND CHOPS",
        "lat": 22.289075,
        "lng": 73.3648997
    },
    "CAFE APPETITO": {
        "name": "CAFE APPETITO",
        "lat": 22.2893979,
        "lng": 73.3650361
    },
    "MARCOS-DA-PIZZA": {
        "name": "MARCOS-DA-PIZZA",
        "lat": 22.2893979,
        "lng": 73.3650361
    },
    "SUBWAY": {
        "name": "SUBWAY",
        "lat": 22.2893979,
        "lng": 73.3650361
    },
    "THE CHOCOLAT ROOM": {
        "name": "THE CHOCOLAT ROOM",
        "lat": 22.2893979,
        "lng": 73.3650361
    },
    "MEDICAL CANTEEN , SEVASHRAM":{
        "name": "MEDICAL CANTEEN , SEVASHRAM",
        "lat": 22.2893789,
        "lng": 73.3652097
    }
}
